<?xml version="1.0" encoding="UTF-8"?><rss xmlns:geo="http://www.w3.org/2003/01/geo/wgs84_pos#" xmlns:dc="http://purl.org/dc/elements/1.1/" version="2.0"><channel><title>Dunaújváros, türelmes</title><item><title>hiányzó padok-[91190]</title><description><![CDATA[bejelentve: *2021.10.14*
lezárva: *2021.10.26*
---A Dózsa György úti járda melletti, nemrég felújított padokat augusztus végén elszállították. Azóta csak a gödrök vannak.
Kérem a terület rendezését és a padok pótlását.
[[https://jarokelo.hu/91190|bejelentés]]]]></description><category>Egyéb</category><geo:lat>46.96041932</geo:lat><geo:long>18.92839502</geo:long></item>
<item><title>megrongált korlát-[88368]</title><description><![CDATA[bejelentve: *2021.08.26*
lezárva: *2021.12.06*
---Kérem a helyreállítását.
[[https://jarokelo.hu/88368|bejelentés]]]]></description><category>Egyéb</category><geo:lat>46.96571508</geo:lat><geo:long>18.93916149</geo:long></item>
<item><title>hiányzó, laza csavarok-[87987]</title><description><![CDATA[bejelentve: *2021.08.18*
lezárva: *2021.12.12*
---A Szent György út és a Baracsi út közötti lépcsősor korlátjánál több rögzítőcsavar hiányzik, illetve laza. Az egyik összekötő elem is lóg.
Kérem a csavarok pótlását, meghúzását.
[[https://jarokelo.hu/87987|bejelentés]]]]></description><category>Egyéb</category><geo:lat>46.97343858</geo:lat><geo:long>18.9264151</geo:long></item>
<item><title>konténer a tűzcsapon-[86227]</title><description><![CDATA[bejelentve: *2021.07.13*
lezárva: *2021.07.21*
---Tűzcsapra tették a konténert.
Kérem haladéktalanul távolítsák el.
[[https://jarokelo.hu/86227|bejelentés]]]]></description><category>Egyéb</category><geo:lat>46.96778527</geo:lat><geo:long>18.92690008</geo:long></item>
<item><title>használhatatlan pad-[84567]</title><description><![CDATA[bejelentve: *2021.06.10*
lezárva: *2021.07.26*
---A Babits Mihály utcában az egyik pad használhatatlan.
Kérem a felújítását.
[[https://jarokelo.hu/84567|bejelentés]]]]></description><category>Egyéb</category><geo:lat>46.96102786</geo:lat><geo:long>18.94086613</geo:long></item>
<item><title>Ronda hirdetőtábla-[84330]</title><description><![CDATA[bejelentve: *2021.06.06*
lezárva: *2021.07.14*
---Kérem bontsák el! Köszönöm szépen!
[[https://jarokelo.hu/84330|bejelentés]]]]></description><category>Egyéb</category><geo:lat>46.9619656</geo:lat><geo:long>18.9460479</geo:long></item>
<item><title>használhatatlan pad-[83980]</title><description><![CDATA[bejelentve: *2021.05.30*
lezárva: *2021.07.14*
---A Kondor Béla utcában az egyik pad használhatatlan.
Kérem a felújítását.
[[https://jarokelo.hu/83980|bejelentés]]]]></description><category>Egyéb</category><geo:lat>46.96539903</geo:lat><geo:long>18.93595804</geo:long></item>
<item><title>kerékpártároló-[83185]</title><description><![CDATA[bejelentve: *2021.05.17*
lezárva: *2021.07.13*
---Kérem hagyják szabadon a kerékpártárolót!
[[https://jarokelo.hu/83185|bejelentés]]]]></description><category>Egyéb</category><geo:lat>46.96456767</geo:lat><geo:long>18.93974212</geo:long></item>
<item><title>felújítandó padok-[83057]</title><description><![CDATA[bejelentve: *2021.05.14*
lezárva: *2021.07.21*
---A Földes Ferenc ligetnél már több pad is elhasználódott.
Kérem a felújításukat.
[[https://jarokelo.hu/83057|bejelentés]]]]></description><category>Egyéb</category><geo:lat>46.96330138</geo:lat><geo:long>18.91966376</geo:long></item>
<item><title>használhatatlan pad-[82650]</title><description><![CDATA[bejelentve: *2021.05.07*
lezárva: *2021.12.14*
---A Vigadó utcában az egyik pad használhatatlan.
Kérem a felújítását.
[[https://jarokelo.hu/82650|bejelentés]]]]></description><category>Egyéb</category><geo:lat>46.97190233</geo:lat><geo:long>18.93725122</geo:long></item>
<item><title>kitörött tartó-[79998]</title><description><![CDATA[bejelentve: *2021.03.15*
lezárva: *2021.04.22*
---FRISSÍTÉS: 2021.04.21
A bejelentő hozzászólása: 'A helyzet változatlan.'
A DMJV PH Városüzemeltetési és Beruházási Osztály nem válaszolt 30 napon belül.
---
A Devecseri Gábor utcában az egyik szemétgyűjtő tartója kitörött.
Kérem az eltávolítását.
[[https://jarokelo.hu/79998|bejelentés]]]]></description><category>Egyéb</category><geo:lat>46.9639942</geo:lat><geo:long>18.93961085</geo:long></item>
<item><title>elhanyagolt hirdető-[78792]</title><description><![CDATA[bejelentve: *2021.02.21*
lezárva: *2021.07.14*
---FRISSÍTÉS: 2021.05.17
A bejelentő hozzászólása: 'A helyzet változatlan.'
A DMJV PH Városüzemeltetési és Beruházási Osztály nem válaszolt 30 napon belül.
---
Az Erkel Ferenc kerti hirdetőre mindig csak ragasztják a plakátokat, de senki sem szedi le őket.
Kérem a rendbetételét.
[[https://jarokelo.hu/78792|bejelentés]]]]></description><category>Egyéb</category><geo:lat>46.96671913</geo:lat><geo:long>18.94011064</geo:long></item>
<item><title>felesleges reklámtábla-[78734]</title><description><![CDATA[bejelentve: *2021.02.20*
lezárva: *2021.04.20*
---A bolt már évekkel ezelőtt elköltözött.
Kérem az eltávolítását.
[[https://jarokelo.hu/78734|bejelentés]]]]></description><category>Egyéb</category><geo:lat>46.96700465</geo:lat><geo:long>18.91618929</geo:long></item>
<item><title>felesleges reklámtábla-[77838]</title><description><![CDATA[bejelentve: *2021.02.03*
lezárva: *2021.04.20*
---FRISSÍTÉS: 2021.04.06
A bejelentő hozzászólása: 'A helyzet változatlan.'
A DMJV PH Városüzemeltetési és Beruházási Osztály nem válaszolt 30 napon belül.
---
A bolt már évekkel ezelőtt elköltözött.
Kérem az eltávolítását.
[[https://jarokelo.hu/77838|bejelentés]]]]></description><category>Egyéb</category><geo:lat>46.96684405</geo:lat><geo:long>18.91686921</geo:long></item>
<item><title>felesleges reklámtábla-[77771]</title><description><![CDATA[bejelentve: *2021.02.02*
lezárva: *2021.06.10*
---FRISSÍTÉS: 2021.05.03
A bejelentő hozzászólása: 'A helyzet változatlan.'
A DMJV PH Városüzemeltetési és Beruházási Osztály nem válaszolt 90 napon belül.
---
Már több éve megszűnt a cég is.
Kérem az eltávolítását.
[[https://jarokelo.hu/77771|bejelentés]]]]></description><category>Egyéb</category><geo:lat>46.96555047</geo:lat><geo:long>18.93600131</geo:long></item>
<item><title>elhanyagolt, rozsdás, ferde hirdető-[77691]</title><description><![CDATA[bejelentve: *2021.02.01*
lezárva: *2021.06.12*
---FRISSÍTÉS: 2021.04.27
A bejelentő hozzászólása: 'A helyzet változatlan.'
A DMJV PH Városüzemeltetési és Beruházási Osztály nem válaszolt 60 napon belül.
---
A Kodály Zoltán utcai hirdetőre már nagyon ráfér egy alapos rendbetétel.
Kérem a felújítását.
[[https://jarokelo.hu/77691|bejelentés]]]]></description><category>Egyéb</category><geo:lat>46.96225179</geo:lat><geo:long>18.94464822</geo:long></item>
<item><title>rozsdás, olvashatatlan reklámtábla-[77229]</title><description><![CDATA[bejelentve: *2021.01.23*
lezárva: *2021.02.07*
---Ez a rozsdás, elhagyott reklámtábla még közelről is olvashatatlan.
Kérem az eltávolítását.
[[https://jarokelo.hu/77229|bejelentés]]]]></description><category>Egyéb</category><geo:lat>46.96802944</geo:lat><geo:long>18.93753017</geo:long></item>
<item><title>rozsdás oszlopok-[76477]</title><description><![CDATA[bejelentve: *2021.01.05*
lezárva: *2021.02.07*
---Valaha irányjelző lehetett, mára csak rozsdás oszlopok.
Kérem az eltávolításukat.
[[https://jarokelo.hu/76477|bejelentés]]]]></description><category>Egyéb</category><geo:lat>46.96050639</geo:lat><geo:long>18.93503107</geo:long></item>
<item><title>olvashatatlan tábla-[75674]</title><description><![CDATA[bejelentve: *2020.12.22*
lezárva: *2021.02.05*
---FRISSÍTÉS: 2021.02.01
A bejelentő hozzászólása: 'A táblát eltávolították.
Köszönöm.
A tartóoszlopokat viszont nem kiásták, hanem a föld felett elvágták. Ezzel balesetveszélyes helyzetet teremtettek.
Kérem ennek megszüntetését.'
A DMJV PH Városüzemeltetési és Beruházási Osztály nem válaszolt 30 napon belül.
---
Ez a tábla még közelről is olvashatatlan.
Kérem a felújítását, vagy az eltávolítását.
[[https://jarokelo.hu/75674|bejelentés]]]]></description><category>Egyéb</category><geo:lat>46.95948912</geo:lat><geo:long>18.94788164</geo:long></item>
<item><title>elhanyagolt hirdető-[75673]</title><description><![CDATA[bejelentve: *2020.12.22*
lezárva: *2021.02.05*
---FRISSÍTÉS: 2021.02.01
A bejelentő hozzászólása: 'A helyzet változatlan.'
A DMJV PH Városüzemeltetési és Beruházási Osztály nem válaszolt 30 napon belül.
---
A Velinszky László utcai hirdetőre már nagyon ráfér egy alapos rendbetétel.
Kérem a felújítását.
[[https://jarokelo.hu/75673|bejelentés]]]]></description><category>Egyéb</category><geo:lat>46.95941846</geo:lat><geo:long>18.94689695</geo:long></item>
<item><title>olvashatatlan reklámtábla-[75672]</title><description><![CDATA[bejelentve: *2020.12.22*
lezárva: *2021.02.05*
---Ez a reklámtábla még közelről is olvashatatlan.
Kérem az eltávolítását.
[[https://jarokelo.hu/75672|bejelentés]]]]></description><category>Egyéb</category><geo:lat>46.95975757</geo:lat><geo:long>18.92649852</geo:long></item>
<item><title>felesleges reklámtábla-[75671]</title><description><![CDATA[bejelentve: *2020.12.22*
lezárva: *2021.04.04*
---FRISSÍTÉS: 2021.02.03
A bejelentő hozzászólása: 'A helyzet változatlan.'
A DMJV PH Városüzemeltetési és Beruházási Osztály nem válaszolt 30 napon belül.
---
Ezt a felesleges reklámtáblát már meg is rongálták.
Kérem az eltávolítását.
[[https://jarokelo.hu/75671|bejelentés]]]]></description><category>Egyéb</category><geo:lat>46.96581705</geo:lat><geo:long>18.91852044</geo:long></item>
<item><title>használhatatlan információs tábla-[73945]</title><description><![CDATA[bejelentve: *2020.11.10*
lezárva: *2021.01.11*
---Elöregedett az információs tábla.
Kérem újítsák fel.
[[https://jarokelo.hu/73945|bejelentés]]]]></description><category>Egyéb</category><geo:lat>46.95818341</geo:lat><geo:long>18.94723852</geo:long></item>
<item><title>kifakult tábla-[73624]</title><description><![CDATA[bejelentve: *2020.11.02*
lezárva: *2021.02.07*
---FRISSÍTÉS: 2020.12.13
A bejelentő hozzászólása: 'Nincs változás.'
A DMJV PH Városüzemeltetési és Beruházási Osztály nem válaszolt 30 napon belül.
---
Kifakult az információs tábla. Már közelről is nehezen olvasható.
Kérem újítsák fel.
[[https://jarokelo.hu/73624|bejelentés]]]]></description><category>Egyéb</category><geo:lat>46.97420335</geo:lat><geo:long>18.92719084</geo:long></item>
<item><title>régi mászóka megszüntetése-[70273]</title><description><![CDATA[bejelentve: *2020.08.26*
lezárva: *2020.12.13*
---FRISSÍTÉS: 2020.11.14
A bejelentő hozzászólása: 'A helyzet változatlan.'
A DMJV PH Városüzemeltetési és Beruházási Osztály nem válaszolt 30 napon belül.
---
FRISSÍTÉS: 2020.10.04
A bejelentő hozzászólása: 'A helyzet változatlan.'
A DMJV PH Városüzemeltetési és Beruházási Osztály nem válaszolt 30 napon belül.
---
A Bástya utcában van egy másik régi mászóka is, amely eredeti funkciójának megfelelően már nem használható.
Kérem a megszüntetését és a terület helyreállítását.
[[https://jarokelo.hu/70273|bejelentés]]]]></description><category>Egyéb</category><geo:lat>46.969973</geo:lat><geo:long>18.92840244</geo:long></item>
<item><title>régi mászóka megszüntetése-[69871]</title><description><![CDATA[bejelentve: *2020.08.18*
lezárva: *2020.12.13*
---FRISSÍTÉS: 2020.11.14
A bejelentő hozzászólása: 'A helyzet változatlan.'
A DMJV PH Városüzemeltetési és Beruházási Osztály nem válaszolt 30 napon belül.
---
FRISSÍTÉS: 2020.10.04
A bejelentő hozzászólása: 'A helyzet változatlan.'
A DMJV PH Városüzemeltetési és Beruházási Osztály nem válaszolt 30 napon belül.
---
A Bástya utcában is van egy régi mászóka, amely eredeti funkciójának megfelelően már nem használható.
Kérem a megszüntetését és a terület helyreállítását.
[[https://jarokelo.hu/69871|bejelentés]]]]></description><category>Egyéb</category><geo:lat>46.96963172</geo:lat><geo:long>18.92966711</geo:long></item>
<item><title>használhatatlan és felújítandó padok-[69382]</title><description><![CDATA[bejelentve: *2020.08.09*
lezárva: *2020.09.23*
---A Bolyai János utcában két pad is felújításra szorul.
Kérem az elvégzését.
[[https://jarokelo.hu/69382|bejelentés]]]]></description><category>Egyéb</category><geo:lat>46.96506162</geo:lat><geo:long>18.93026434</geo:long></item>
<item><title>használhatatlan pad-[69180]</title><description><![CDATA[bejelentve: *2020.08.05*
lezárva: *2020.09.23*
---A Kondor Béla utcában az egyik pad használhatatlan.
Kérem a felújítását.
[[https://jarokelo.hu/69180|bejelentés]]]]></description><category>Egyéb</category><geo:lat>46.96540388</geo:lat><geo:long>18.9364461</geo:long></item>
<item><title>turistajelzés-[69038]</title><description><![CDATA[bejelentve: *2020.08.03*
lezárva: *2020.09.22*
---FRISSÍTÉS: 2020.09.08
A bejelentő hozzászólása: 'A helyzet változatlan. Nem érkezett válasz.'
A Pentele Természetjáró Egyesület nem válaszolt.
---
Kérem, hogy - a Dunaferr-Art Dunaújváros Alapítvánnyal egyeztetett módon - a védett műalkotásról távolítsák el a turistajelzéseket.
[[https://jarokelo.hu/69038|bejelentés]]]]></description><category>Egyéb</category><geo:lat>46.96341808</geo:lat><geo:long>18.94886281</geo:long></item>
<item><title>használhatatlan pad-[67713]</title><description><![CDATA[bejelentve: *2020.07.11*
lezárva: *2020.10.08*
---FRISSÍTÉS: 2020.08.20
A bejelentő hozzászólása: 'A helyzet változatlan.'
A DMJV PH Városüzemeltetési és Beruházási Osztály nem válaszolt 30 napon belül.
---
A Táncsics Mihály utca és a Szórád Márton út közötti, velük párhuzamosan futó járda mellett az egyik pad használhatatlan.
Kérem a felújítását.
[[https://jarokelo.hu/67713|bejelentés]]]]></description><category>Egyéb</category><geo:lat>46.96645653</geo:lat><geo:long>18.93226231</geo:long></item>
<item><title>felújítandó pad-[67639]</title><description><![CDATA[bejelentve: *2020.07.10*
lezárva: *2020.08.06*
---A Táncsics Mihály utcában az egyik pad felújításra szorul.
Kérem az elvégzését.
[[https://jarokelo.hu/67639|bejelentés]]]]></description><category>Egyéb</category><geo:lat>46.96674207</geo:lat><geo:long>18.93179561</geo:long></item>
<item><title>használhatatlan pad-[67438]</title><description><![CDATA[bejelentve: *2020.07.07*
lezárva: *2020.10.15*
---FRISSÍTÉS: 2020.08.26
A bejelentő hozzászólása: 'A háttámla továbbra is javításra szorul.'
A DMJV PH Városüzemeltetési és Beruházási Osztály nem válaszolt 30 napon belül.
---
A Gagarin téren az egyik pad háttámlája hiányzik.
Kérem a háttámla pótlását.
[[https://jarokelo.hu/67438|bejelentés]]]]></description><category>Egyéb</category><geo:lat>46.96116614</geo:lat><geo:long>18.94533129</geo:long></item>
<item><title>használhatatlan padok-[65785]</title><description><![CDATA[bejelentve: *2020.06.13*
lezárva: *2020.08.03*
---A Lobogó utcai járda melletti padok használhatatlanok.
Kérem a felújításukat.
[[https://jarokelo.hu/65785|bejelentés]]]]></description><category>Egyéb</category><geo:lat>46.96664573</geo:lat><geo:long>18.91815124</geo:long></item>
<item><title>hiányzó levélgyűjtőszekrény-[65748]</title><description><![CDATA[bejelentve: *2020.06.12*
lezárva: *2020.09.02*
---FRISSÍTÉS: 2020.08.05
A bejelentő hozzászólása: 'A helyzet változatlan.'
A Magyar Posta Zrt. érdemben nem válaszolt 30 napon belül.
---
A Martinovics Ignác utcában régóta nincs levélgyűjtőszekrény (postaláda), csak a tartószerkezet árválkodik.
Kérem levélgyűjtőszekrény kihelyezését, vagy a tartószerkezet eltávolítását.
[[https://jarokelo.hu/65748|bejelentés]]]]></description><category>Egyéb</category><geo:lat>46.97073317</geo:lat><geo:long>18.93753053</geo:long></item>
<item><title>használhatatlan pad-[65391]</title><description><![CDATA[bejelentve: *2020.06.07*
lezárva: *2020.09.02*
---FRISSÍTÉS: 2020.08.03
A bejelentő hozzászólása: 'A helyzet változatlan.'
A DMJV PH Városüzemeltetési és Beruházási Osztály nem válaszolt 30 napon belül.
---
A Béke körúti járda mellett az egyik pad használhatatlan.
Kérem a felújítását.
[[https://jarokelo.hu/65391|bejelentés]]]]></description><category>Egyéb</category><geo:lat>46.9672254</geo:lat><geo:long>18.91619517</geo:long></item>
<item><title>választási plakát-[65285]</title><description><![CDATA[bejelentve: *2020.06.05*
lezárva: *2020.07.10*
---Kint maradtak a választási plakátok.
Kérem, távolítsák el őket.
[[https://jarokelo.hu/65285|bejelentés]]]]></description><category>Egyéb</category><geo:lat>46.96437031</geo:lat><geo:long>18.92817749</geo:long></item>
<item><title>használhatatlan pad-[64342]</title><description><![CDATA[bejelentve: *2020.05.18*
lezárva: *2020.06.28*
---A Szórád Márton úti járda melletti egyik pad használhatatlan.
Kérem a felújítását.
[[https://jarokelo.hu/64342|bejelentés]]]]></description><category>Egyéb</category><geo:lat>46.96606067</geo:lat><geo:long>18.93339135</geo:long></item>
<item><title>régi mászókák megszüntetése-[64336]</title><description><![CDATA[bejelentve: *2020.05.18*
lezárva: *2020.06.14*
---A városban több helyen is vannak olyan régi, részben sérül, hiányos mászókák, amelyek eredeti funkciójuknak megfelelően már nem használhatóak. A már ismert mászókák helyeit a ( https://umap.openstreetmap.fr/hu/map/maszokak_458875#15/46.9655/18.9355 ) térkép tartalmazza.
Kérem a megszüntetésüket és a helyszínek helyreállítását.
[[https://jarokelo.hu/64336|bejelentés]]]]></description><category>Egyéb</category><geo:lat>46.96308183</geo:lat><geo:long>18.94586727</geo:long></item>
<item><title>megrongált hirdető-[64248]</title><description><![CDATA[bejelentve: *2020.05.16*
lezárva: *2020.06.08*
---Az Építők útján az egyik hirdetőt megrongálták.
Kérem a helyreállítását.
[[https://jarokelo.hu/64248|bejelentés]]]]></description><category>Egyéb</category><geo:lat>46.95877195</geo:lat><geo:long>18.93826671</geo:long></item>
<item><title>Kint maradt választási plakát-[63351]</title><description><![CDATA[bejelentve: *2020.04.24*
lezárva: *2020.05.19*
---Tisztelt Illetékes!
A Tóth Árpád utcában még kint van a 2019.10.13-ai választási plakát.
Kérem eltávolítani!
Előre is köszönöm.
[[https://jarokelo.hu/63351|bejelentés]]]]></description><category>Egyéb</category><geo:lat>46.97664931</geo:lat><geo:long>18.91667706</geo:long></item>
<item><title>Ott maradt plakát-[63342]</title><description><![CDATA[bejelentve: *2020.04.24*
lezárva: *2020.04.26*
---Választási plakát maradt a Gábor Dénes utcában.
Kérném eltávolítani!
[[https://jarokelo.hu/63342|bejelentés]]]]></description><category>Egyéb</category><geo:lat>46.96436503</geo:lat><geo:long>18.93554342</geo:long></item>
<item><title>balesetveszélyes-[62932]</title><description><![CDATA[bejelentve: *2020.04.14*
lezárva: *2020.04.18*
---Bár már több mint egy hete újra üzemel az áruház, de ez az üvegtábla még mindig a parkolóban van. A legnagyobb baj az, hogy kb. 40 centimétert belóg a gyalogos útvonalba és alig látható.
Ez így nagyon balesetveszélyes.
Kérem az elszállítását.
[[https://jarokelo.hu/62932|bejelentés]]]]></description><category>Egyéb</category><geo:lat>46.96127813</geo:lat><geo:long>18.91953255</geo:long></item>
<item><title>használhatatlan pad-[61511]</title><description><![CDATA[bejelentve: *2020.03.05*
lezárva: *2020.04.26*
---A Vasmű út és a kis Vasmű út közötti járda mellett az egyik pad használhatatlan
Kérem a javítását.
[[https://jarokelo.hu/61511|bejelentés]]]]></description><category>Egyéb</category><geo:lat>46.96121397</geo:lat><geo:long>18.94374753</geo:long></item>
<item><title>hiányzó és elhasználódott korlátelemek-[60853]</title><description><![CDATA[bejelentve: *2020.02.24*
lezárva: *2020.04.17*
---A Vízimolnárok és a Mikszáth utcát összekötő (Lebuki-patak feletti) híd több korláteleme is hiányzik és a meglévők közül sok elhasználódott.
Kérem a korlátok felújítását.
[[https://jarokelo.hu/60853|bejelentés]]]]></description><category>Egyéb</category><geo:lat>46.98094552</geo:lat><geo:long>18.92583017</geo:long></item>
<item><title>letiport kerítés-[60639]</title><description><![CDATA[bejelentve: *2020.02.21*
lezárva: *2020.04.13*
---A Domanovszky téri játszótér kerítését több helyen is letiporták.
Kérem a kijavítását.
[[https://jarokelo.hu/60639|bejelentés]]]]></description><category>Egyéb</category><geo:lat>46.97305323</geo:lat><geo:long>18.93412416</geo:long></item>
<item><title>használhatatlan pad-[60568]</title><description><![CDATA[bejelentve: *2020.02.20*
lezárva: *2020.06.03*
---FRISSÍTÉS: 2020.04.12
A bejelentő hozzászólása: 'A helyzet változatlan.'
A DMJV PH Városüzemeltetési és Beruházási Osztály nem válaszolt 30 napon belül.
---
A Weiner Tibor körút és a Bercsényi Miklós utca kereszteződésénél (a volt Bánki előtt) az egyik pad használhatatlan.
Kérem a felújítását.
[[https://jarokelo.hu/60568|bejelentés]]]]></description><category>Egyéb</category><geo:lat>46.9673527</geo:lat><geo:long>18.93151951</geo:long></item>
<item><title>használhatatlan pad-[60317]</title><description><![CDATA[bejelentve: *2020.02.17*
lezárva: *2020.06.03*
---FRISSÍTÉS: 2020.04.24
A bejelentő hozzászólása: 'A helyzet lényegében változatlan, csak a deszkát valaki feltette a tartóra.'
A DMJV PH Városüzemeltetési és Beruházási Osztály nem válaszolt 30 napon belül.
---
A Dózsa György úti járda mellett az egyik pad használhatatlan.
Kérem a felújítását.
[[https://jarokelo.hu/60317|bejelentés]]]]></description><category>Egyéb</category><geo:lat>46.96238891</geo:lat><geo:long>18.9326787</geo:long></item>
<item><title>kidőlő tábla-[59175]</title><description><![CDATA[bejelentve: *2020.02.01*
lezárva: *2020.03.10*
---A Május 1. utcában a természeti emléket jelző tábla lassan kidől.
Kérem a helyreállítását.
[[https://jarokelo.hu/59175|bejelentés]]]]></description><category>Egyéb</category><geo:lat>46.95892642</geo:lat><geo:long>18.94126005</geo:long></item>
<item><title>használhatatlan pad-[59070]</title><description><![CDATA[bejelentve: *2020.01.30*
lezárva: *2020.06.03*
---FRISSÍTÉS: 2020.04.26
A bejelentő hozzászólása: 'A helyzet változatlan.'
A DMJV PH Városüzemeltetési és Beruházási Osztály nem válaszolt 30 napon belül.
---
FRISSÍTÉS: 2020.03.05
A bejelentő hozzászólása: 'A helyzet változatlan.'
A DMJV PH Városüzemeltetési és Beruházási Osztály nem válaszolt 30 napon belül.
---
A Kossuth Lajos utcában az egyik pad használhatatlan.
Kérem tavaszig fejezzék be a felújítását.
[[https://jarokelo.hu/59070|bejelentés]]]]></description><category>Egyéb</category><geo:lat>46.96189202</geo:lat><geo:long>18.93885143</geo:long></item>
<item><title>használhatatlan pad-[58830]</title><description><![CDATA[bejelentve: *2020.01.26*
lezárva: *2020.07.10*
---FRISSÍTÉS: 2020.06.03
A bejelentő hozzászólása: 'A helyzet változatlan.'
A DMJV PH Városüzemeltetési és Beruházási Osztály nem válaszolt 30 napon belül.
---
FRISSÍTÉS: 2020.04.10
A bejelentő hozzászólása: 'A helyzet változatlan.'
A DMJV PH Városüzemeltetési és Beruházási Osztály nem válaszolt 30 napon belül.
---
FRISSÍTÉS: 2020.03.02
A bejelentő hozzászólása: 'A helyzet változatlan.'
A DMJV PH Városüzemeltetési és Beruházási Osztály nem válaszolt 30 napon belül.
---
A Hold utcai járda mellett az egyik pad használhatatlan.
Kérem tavaszig fejezzék be a felújítását.
[[https://jarokelo.hu/58830|bejelentés]]]]></description><category>Egyéb</category><geo:lat>46.9615042</geo:lat><geo:long>18.91790743</geo:long></item>
<item><title>választási plakát-[58575]</title><description><![CDATA[bejelentve: *2020.01.22*
lezárva: *2020.02.04*
---Kint maradt a választási plakát.
Kérem, távolítsák el.
[[https://jarokelo.hu/58575|bejelentés]]]]></description><category>Egyéb</category><geo:lat>46.96776718</geo:lat><geo:long>18.93774615</geo:long></item>
<item><title>használhatatlan pad-[57980]</title><description><![CDATA[bejelentve: *2020.01.11*
lezárva: *2020.06.24*
---FRISSÍTÉS: 2020.06.04
A bejelentő hozzászólása: 'A helyzet változatlan.'
A DMJV PH Városüzemeltetési és Beruházási Osztály nem válaszolt 30 napon belül.
---
FRISSÍTÉS: 2020.04.19
A bejelentő hozzászólása: 'A helyzet változatlan.'
A DMJV PH Városüzemeltetési és Beruházási Osztály nem válaszolt 30 napon belül.
---
A Szórád Márton úti járda melletti pad használhatatlan.
Kérem tavaszig fejezzék be a felújítását.
[[https://jarokelo.hu/57980|bejelentés]]]]></description><category>Egyéb</category><geo:lat>46.96657465</geo:lat><geo:long>18.93338759</geo:long></item>
<item><title>használhatatlan pad-[57292]</title><description><![CDATA[bejelentve: *2019.12.31*
lezárva: *2020.02.24*
---A Dobó István úton az egyik pad használhatatlan.
Kérem tavaszig fejezzék be a felújítását.
[[https://jarokelo.hu/57292|bejelentés]]]]></description><category>Egyéb</category><geo:lat>46.96928166</geo:lat><geo:long>18.91481225</geo:long></item>
<item><title>választási plakát-[57222]</title><description><![CDATA[bejelentve: *2019.12.29*
lezárva: *2020.04.07*
---FRISSÍTÉS: 2020.03.12
A bejelentő hozzászólása: 'A helyzet gyakorlatilag változatlan.'
A DMJV PH Városüzemeltetési és Beruházási Osztály nem válaszolt 30 napon belül.
---
FRISSÍTÉS: 2020.02.03
A bejelentő hozzászólása: 'A helyzet változatlan.'
A DMJV PH Városüzemeltetési és Beruházási Osztály nem válaszolt 30 napon belül.
---
Kint maradt a választási plakát.
Kérem, távolítsák el.
[[https://jarokelo.hu/57222|bejelentés]]]]></description><category>Egyéb</category><geo:lat>46.96425079</geo:lat><geo:long>18.91724358</geo:long></item>
<item><title>hiányzó levélgyűjtőszekrény-[57203]</title><description><![CDATA[bejelentve: *2019.12.29*
lezárva: *2020.05.15*
---FRISSÍTÉS: 2020.03.05
A bejelentő hozzászólása: 'A helyzet változatlan.'
A Magyar Posta Zrt. érdemben nem válaszolt 60 napon belül.
---
A Vasmű út és a Babits Mihály utca kereszteződésénél hónapok óta nincs levélgyűjtőszekrény (postaláda), csak a tartószerkezet árválkodik.
Kérem levélgyűjtőszekrény kihelyezését (de előtte a tartószerkezet áthelyezését, hogy a szekrény a járdán megközelíthető legyen), vagy a tartószerkezet eltávolítását.
[[https://jarokelo.hu/57203|bejelentés]]]]></description><category>Egyéb</category><geo:lat>46.9620204</geo:lat><geo:long>18.94234778</geo:long></item>
<item><title>kimozdított szegélykövek-[56330]</title><description><![CDATA[bejelentve: *2019.12.12*
lezárva: *2020.01.16*
---A Fáklya utcában lévő zöldterületeket határoló szegélyköveket kimozdították az eredeti helyükről.
Kérem a helyretételüket.
[[https://jarokelo.hu/56330|bejelentés]]]]></description><category>Egyéb</category><geo:lat>46.96594272</geo:lat><geo:long>18.9183826</geo:long></item>
<item><title>választási plakát-[55967]</title><description><![CDATA[bejelentve: *2019.12.05*
lezárva: *2019.12.29*
---Kint maradt a választási plakát.
Kérem, távolítsák el a részeit is.
[[https://jarokelo.hu/55967|bejelentés]]]]></description><category>Egyéb</category><geo:lat>46.96718234</geo:lat><geo:long>18.94023956</geo:long></item>
<item><title>választási plakát-[55892]</title><description><![CDATA[bejelentve: *2019.12.03*
lezárva: *2019.12.10*
---Kint maradt a választási plakát.
Kérem, távolítsák el.
[[https://jarokelo.hu/55892|bejelentés]]]]></description><category>Egyéb</category><geo:lat>46.97149926</geo:lat><geo:long>18.93273692</geo:long></item>
<item><title>Balesetveszélyes oszlop az Interspar parkolójában-[55788]</title><description><![CDATA[bejelentve: *2019.12.01*
lezárva: *2019.12.12*
---2 db valamikori szemetes tartónak ott van még a tartó oszlopa az Interspar parkolójában.
Nincs funkciója, de balesetveszélyes.
[[https://jarokelo.hu/55788|bejelentés]]]]></description><category>Egyéb</category><geo:lat>46.96096195</geo:lat><geo:long>18.91861869</geo:long></item>
<item><title>kidőlő tábla-[55751]</title><description><![CDATA[bejelentve: *2019.11.30*
lezárva: *2020.02.16*
---FRISSÍTÉS: 2020.01.08
A bejelentő hozzászólása: 'A helyzet változatlan.'
A DMJV PH Városüzemeltetési és Beruházási Osztály nem válaszolt 30 napon belül.
---
Az Alsó Duna-parti út melletti, a terület természetvédelmi védettségét jelző tábla lassan kidől.
Kérem a helyreállítását, valamint a megtisztítását.
[[https://jarokelo.hu/55751|bejelentés]]]]></description><category>Egyéb</category><geo:lat>46.95619632</geo:lat><geo:long>18.95376034</geo:long></item>
<item><title>használhatatlan porolók-[55748]</title><description><![CDATA[bejelentve: *2019.11.30*
lezárva: *2020.02.20*
---FRISSÍTÉS: 2020.02.12
A bejelentő hozzászólása: 'A helyzet változatlan.'
A DMJV PH Városüzemeltetési és Beruházási Osztály nem válaszolt 30 napon belül.
---
FRISSÍTÉS: 2020.01.06
A bejelentő hozzászólása: 'A helyzet változatlan.'
A DMJV PH Városüzemeltetési és Beruházási Osztály nem válaszolt 30 napon belül.
---
A Babits Mihály utca és a Kossuth Lajos utca közötti sétány melletti porolók használhatatlanok.
Kérem a megszüntetésüket és a betondarabok elszállítását.
[[https://jarokelo.hu/55748|bejelentés]]]]></description><category>Egyéb</category><geo:lat>46.96199376</geo:lat><geo:long>18.94165994</geo:long></item>
<item><title>használhatatlan pad-[55690]</title><description><![CDATA[bejelentve: *2019.11.29*
lezárva: *2020.02.17*
---A Mátyás király útnál az egyik pad használhatatlan.
Kérem tavaszig fejezzék be a felújítását.
[[https://jarokelo.hu/55690|bejelentés]]]]></description><category>Egyéb</category><geo:lat>46.96714134</geo:lat><geo:long>18.91392961</geo:long></item>
<item><title>oszlop az árokban-[55640]</title><description><![CDATA[bejelentve: *2019.11.28*
lezárva: *2020.02.11*
---FRISSÍTÉS: 2020.01.08
A bejelentő hozzászólása: 'A helyzet változatlan.'
A DMJV PH Városüzemeltetési és Beruházási Osztály által meghatározott teljesítési határidő lejárt.
---
Az Alsó Duna-parti út melletti vízelvezető árokban egy jelzőtábla és a hozzá tartozó betontuskó van.
Kérem távolítsák el.
[[https://jarokelo.hu/55640|bejelentés]]]]></description><category>Egyéb</category><geo:lat>46.96686136</geo:lat><geo:long>18.94683357</geo:long></item>
<item><title>választási plakát-[55486]</title><description><![CDATA[bejelentve: *2019.11.26*
lezárva: *2019.12.29*
---Kint maradt a választási plakát.
Kérem, távolítsák el.
[[https://jarokelo.hu/55486|bejelentés]]]]></description><category>Egyéb</category><geo:lat>46.96991467</geo:lat><geo:long>18.935691</geo:long></item>
<item><title>választási plakát-[55482]</title><description><![CDATA[bejelentve: *2019.11.26*
lezárva: *2020.02.17*
---FRISSÍTÉS: 2020.01.11
A bejelentő hozzászólása: 'A plakátot eltávolították, de a ragasztónyom ott maradt.
Kérem a felragasztása előtti állapot visszaállítását.'
---
FRISSÍTÉS: 2019.12.29
A bejelentő hozzászólása: 'A helyzet változatlan.'
Sem a Fidesz, sem a DMJV PH Városüzemeltetési és Beruházási Osztály nem válaszolt 30 napon belül.
---
Kint maradt a választási plakát.
Kérem, távolítsák el.
[[https://jarokelo.hu/55482|bejelentés]]]]></description><category>Egyéb</category><geo:lat>46.97447479</geo:lat><geo:long>18.93491553</geo:long></item>
<item><title>felesleges korlátoszlopok-[55389]</title><description><![CDATA[bejelentve: *2019.11.25*
lezárva: *2019.12.03*
---A Bartók Béla utcában több hete árválkodik a két korlátoszlop.
Kérem az elszállításukat.
[[https://jarokelo.hu/55389|bejelentés]]]]></description><category>Egyéb</category><geo:lat>46.96205262</geo:lat><geo:long>18.93846233</geo:long></item>
<item><title>választási plakát-[55284]</title><description><![CDATA[bejelentve: *2019.11.23*
lezárva: *2019.12.17*
---Kint maradt a választási plakát.
Kérem, távolítsák el.
[[https://jarokelo.hu/55284|bejelentés]]]]></description><category>Egyéb</category><geo:lat>46.95881665</geo:lat><geo:long>18.93765545</geo:long></item>
<item><title>választási plakát-[55187]</title><description><![CDATA[bejelentve: *2019.11.21*
lezárva: *2019.12.28*
---Kint maradt a választási plakát.
Kérem, távolítsák el.
[[https://jarokelo.hu/55187|bejelentés]]]]></description><category>Egyéb</category><geo:lat>46.96649771</geo:lat><geo:long>18.93672686</geo:long></item>
<item><title>választási plakát-[55154]</title><description><![CDATA[bejelentve: *2019.11.20*
lezárva: *2019.11.23*
---Kint maradt a választási plakát.
Kérem, távolítsák el.
[[https://jarokelo.hu/55154|bejelentés]]]]></description><category>Egyéb</category><geo:lat>46.95969632</geo:lat><geo:long>18.94519707</geo:long></item>
<item><title>választási plakát-[55152]</title><description><![CDATA[bejelentve: *2019.11.20*
lezárva: *2019.12.28*
---Kint maradt a választási plakát.
Kérem, távolítsák el.
[[https://jarokelo.hu/55152|bejelentés]]]]></description><category>Egyéb</category><geo:lat>46.96233136</geo:lat><geo:long>18.94315906</geo:long></item>
<item><title>választási plakát-[55151]</title><description><![CDATA[bejelentve: *2019.11.20*
lezárva: *2019.12.11*
---Kint maradt a választási plakát.
Kérem, távolítsák el.
[[https://jarokelo.hu/55151|bejelentés]]]]></description><category>Egyéb</category><geo:lat>46.96782663</geo:lat><geo:long>18.93804603</geo:long></item>
<item><title>választási plakát-[55149]</title><description><![CDATA[bejelentve: *2019.11.20*
lezárva: *2019.12.03*
---Kint maradtak a választási plakátok.
Kérem, távolítsák el őket.
[[https://jarokelo.hu/55149|bejelentés]]]]></description><category>Egyéb</category><geo:lat>46.96974396</geo:lat><geo:long>18.93621625</geo:long></item>
<item><title>választási plakát-[55026]</title><description><![CDATA[bejelentve: *2019.11.17*
lezárva: *2019.11.20*
---Kint maradt a választási plakát.
Kérem, távolítsák el.
[[https://jarokelo.hu/55026|bejelentés]]]]></description><category>Egyéb</category><geo:lat>46.96249653</geo:lat><geo:long>18.92948961</geo:long></item>
<item><title>választási plakát-[55025]</title><description><![CDATA[bejelentve: *2019.11.17*
lezárva: *2019.11.21*
---Kint maradt a választási plakát.
Kérem, távolítsák el.
[[https://jarokelo.hu/55025|bejelentés]]]]></description><category>Egyéb</category><geo:lat>46.96362737</geo:lat><geo:long>18.94152827</geo:long></item>
<item><title>használhatatlan padok-[55016]</title><description><![CDATA[bejelentve: *2019.11.17*
lezárva: *2020.02.26*
---FRISSÍTÉS: 2019.12.28
A bejelentő hozzászólása: 'A helyzet változatlan.
Kérem tavaszig fejezzék be a felújításukat.'
A DMJV PH Városüzemeltetési és Beruházási Osztály nem válaszolt 30 napon belül.
---
A Fáklya utcában lévő padok használhatatlanok.
Kérem a felújításukat.
[[https://jarokelo.hu/55016|bejelentés]]]]></description><category>Egyéb</category><geo:lat>46.96633479</geo:lat><geo:long>18.91784081</geo:long></item>
<item><title>választási plakát-[54859]</title><description><![CDATA[bejelentve: *2019.11.14*
lezárva: *2019.11.20*
---Kint maradt a választási plakát.
Kérem, távolítsák el.
[[https://jarokelo.hu/54859|bejelentés]]]]></description><category>Egyéb</category><geo:lat>46.95992059</geo:lat><geo:long>18.92349789</geo:long></item>
<item><title>használhatatlan pad-[54558]</title><description><![CDATA[bejelentve: *2019.11.08*
lezárva: *2019.12.09*
---A Földes Ferenc ligetben ez a pad használhatatlan.
Kérem a javítást.
[[https://jarokelo.hu/54558|bejelentés]]]]></description><category>Egyéb</category><geo:lat>46.96438787</geo:lat><geo:long>18.91972753</geo:long></item>
<item><title>megrongált hirdető-[52733]</title><description><![CDATA[bejelentve: *2019.09.30*
lezárva: *2020.02.06*
---FRISSÍTÉS: 2020.01.27
A bejelentő hozzászólása: 'A helyzet változatlan.'
A DMJV PH Városüzemeltetési és Beruházási Osztály nem válaszolt 30 napon belül.
---
FRISSÍTÉS: 2019.12.22
A bejelentő hozzászólása: 'A helyzet változatlan.'
A DMJV PH Városüzemeltetési és Beruházási Osztály nem válaszolt 30 napon belül.
---
FRISSÍTÉS: 2019.11.13
A bejelentő hozzászólása: 'A helyzet változatlan.'
A DMJV PH Városüzemeltetési és Beruházási Osztály nem válaszolt 30 napon belül.
---
A 2014-ben felújított Városháza téren elhelyezett hirdetőt nem sokkal a tér átadása után megrongálták.
Kérem a javítást.
[[https://jarokelo.hu/52733|bejelentés]]]]></description><category>Egyéb</category><geo:lat>46.96485243</geo:lat><geo:long>18.94038801</geo:long></item>
<item><title>elhullott galambok-[52730]</title><description><![CDATA[bejelentve: *2019.09.30*
lezárva: *2019.12.18*
---FRISSÍTÉS: 2019.11.12
A DMJV PH Városüzemeltetési és Beruházási Osztály nem válaszolt 30 napon belül.
---
A Dózsa György 9. szám előtt elhullott galambok találhatók.
Kérem az elszállításukat.
[[https://jarokelo.hu/52730|bejelentés]]]]></description><category>Egyéb</category><geo:lat>46.96375558</geo:lat><geo:long>18.9378151</geo:long></item>
<item><title>paddeszka és háttámla nélküli pad-[52645]</title><description><![CDATA[bejelentve: *2019.09.28*
lezárva: *2019.11.17*
---A Petőfi ligetben árválkodik a képeken látható, letűnt idők emlékét hordozó 'pad'.
Kérem a felújítását.
[[https://jarokelo.hu/52645|bejelentés]]]]></description><category>Egyéb</category><geo:lat>46.96059753</geo:lat><geo:long>18.93840133</geo:long></item>
<item><title>paddeszka nélküli pad-[52644]</title><description><![CDATA[bejelentve: *2019.09.28*
lezárva: *2019.11.14*
---A Szórád Márton úttól a Jószolgálati Otthon felé vezető járda mellett található ez a paddeszka nélküli pad.
Kérem a felújítását.
[[https://jarokelo.hu/52644|bejelentés]]]]></description><category>Egyéb</category><geo:lat>46.96070369</geo:lat><geo:long>18.93567931</geo:long></item>
</channel></rss>